[{"id":"wkiUYbXzcfNimA8q8tucAw","alias":"copan-trade-tomball","name":"Copan Trade","image_url":"","is_closed":false,"url":"https://www.yelp.com/biz/copan-trade-tomball?adjust_creative=Dar6QzMp97qnghlx8kqsNA&utm_campaign=yelp_api_v3&utm_medium=api_v3_business_search&utm_source=Dar6QzMp97qnghlx8kqsNA","review_count":4,"categories":[{"alias":"coffeeroasteries","title":"Coffee Roasteries"}],"rating":5,"coordinates":{"latitude":30.08433,"longitude":-95.59454},"transactions":[],"location":{"address1":"22111 Hufsmith Kohrville Rd","address2":"","address3":"","city":"Tomball","zip_code":"77375","country":"US","state":"TX","display_address":["22111 Hufsmith Kohrville Rd","Tomball, TX 77375"]},"phone":"+12813578075","display_phone":"(281) 357-8075","distance":888.9749201864249},{"id":"-ZwzBWU3cLW4qJTAPAH7qA","alias":"mcdonalds-tomball-6","name":"McDonald's","image_url":"https://s3-media3.fl.yelpcdn.com/bphoto/EU-h29eIQwPMScMBMQhDVg/o.jpg","is_closed":false,"url":"https://www.yelp.com/biz/mcdonalds-tomball-6?adjust_creative=Dar6QzMp97qnghlx8kqsNA&utm_campaign=yelp_api_v3&utm_medium=api_v3_business_search&utm_source=Dar6QzMp97qnghlx8kqsNA","review_count":12,"categories":[{"alias":"hotdogs","title":"Fast Food"},{"alias":"burgers","title":"Burgers"},{"alias":"coffee","title":"Coffee & Tea"}],"rating":2.5,"coordinates":{"latitude":30.0991308075137,"longitude":-95.5935321655306},"transactions":[],"price":"$","location":{"address1":"11355 Fm 2920","address2":"","address3":"","city":"Tomball","zip_code":"77375","country":"US","state":"TX","display_address":["11355 Fm 2920","Tomball, TX 77375"]},"phone":"+12812552434","display_phone":"(281) 255-2434","distance":1106.525748125725},{"id":"wixYA9F01cir9SrbSsLXsg","alias":"kleins-fine-foods-tomball","name":"Klein's Fine Foods","image_url":"https://s3-media1.fl.yelpcdn.com/bphoto/XohJ_Wl6uEH1XMO_4Sx0FQ/o.jpg","is_closed":false,"url":"https://www.yelp.com/biz/kleins-fine-foods-tomball?adjust_creative=Dar6QzMp97qnghlx8kqsNA&utm_campaign=yelp_api_v3&utm_medium=api_v3_business_search&utm_source=Dar6QzMp97qnghlx8kqsNA","review_count":1,"categories":[{"alias":"desserts","title":"Desserts"},{"alias":"localflavor","title":"Local Flavor"},{"alias":"gourmet","title":"Specialty Food"}],"rating":4,"coordinates":{"latitude":30.087739,"longitude":-95.5940874},"transactions":[],"location":{"address1":"24501 Hufsmith-kohrville Rd","address2":"Ste 700","address3":null,"city":"Tomball","zip_code":"77375","country":"US","state":"TX","display_address":["24501 Hufsmith-kohrville Rd","Ste 700","Tomball, TX 77375"]},"phone":"+12812550326","display_phone":"(281) 255-0326","distance":665.156441628336},{"id":"rqbonp-EWGCrPH7eVs8RRQ","alias":"jack-in-the-box-tomball","name":"Jack in the Box","image_url":"https://s3-media3.fl.yelpcdn.com/bphoto/FVQ2MT4X3zDHfTRDK_UhQw/o.jpg","is_closed":false,"url":"https://www.yelp.com/biz/jack-in-the-box-tomball?adjust_creative=Dar6QzMp97qnghlx8kqsNA&utm_campaign=yelp_api_v3&utm_medium=api_v3_business_search&utm_source=Dar6QzMp97qnghlx8kqsNA","review_count":5,"categories":[{"alias":"hotdogs","title":"Fast Food"},{"alias":"burgers","title":"Burgers"},{"alias":"tacos","title":"Tacos"}],"rating":1,"coordinates":{"latitude":30.100052169322,"longitude":-95.5951577425003},"transactions":[],"price":"$","location":{"address1":"11214 Fm 2920 Rd","address2":"","address3":"","city":"Tomball","zip_code":"77375","country":"US","state":"TX","display_address":["11214 Fm 2920 Rd","Tomball, TX 77375"]},"phone":"+12815161401","display_phone":"(281) 516-1401","distance":1275.189480169584}]